{
	"name": "NSTDA",
	"panelIcons": [{
		"id": "road",
		"name": "road",
		"iconURL": {
			"method": "GET",
			"url": "https://docs.meca.in.th/assets/dashboard/Picture/Button/road.png"
		},
		"tooltip": "Demo icon",
		"mapOption": {
			"center": {
				"lat": -34.397,
				"lng": 150.644
			},
			"zoom": 8
		},
		"defaultLayerIndex": 0,
		"layers": [
			{
				"id": "example",
				"name": "ตัวอย่าง",
				"markers": [{
					"id": "marker.demo",
					"name": "Demo marker",
					"iconURL": {
						"method": "GET",
						"url": "https://docs.meca.in.th/assets/dashboard/Picture/marker/park.png"
					},
					"hoverContent": {
						"title": "Demo",
						"headContent": {
							"dataURL": {
								"method": "GET",
								"url": "https://api.openweathermap.org/data/2.5/weather?lat=14.076648&lon=100.601465&units=metric&appid=f47eeabecaa43594079886ab0fcd1508"
							},
							"template": "{{main.temp}}/{{main.humidity}}%"
						},
						"bodyContent": {
							"embeddedURL": {
								"method": "GET",
								"url": "https://opendata.mes.meca.in.th/s/opendata/app/dashboards#/view/be46afe0-c765-11eb-9bf9-036b25d96c69?embed=true&_g=(filters:!(),refreshInterval:(pause:!t,value:0),time:(from:now-1y,to:now))&_a=(description:'',filters:!(),fullScreenMode:!f,options:(hidePanelTitles:!f,useMargins:!t),query:(language:kuery,query:''),timeRestore:!t,title:'%E0%B8%9B%E0%B8%A3%E0%B8%B4%E0%B8%A1%E0%B8%B2%E0%B8%93%E0%B8%82%E0%B8%A2%E0%B8%B0%20NECTEC',viewMode:view)&hide-filter-bar=true"
							}
						}
					},
					"position": {
						"lat": -25.363,
						"lng": 131.044
					}
				}],
				"shapes": [{
						"id": "polyline.demo",
						"name": "Demo polyline",
						"type": "Polyline",
						"polylineOption": {
							"path": [{
									"lat": 37.772,
									"lng": -122.214
								},
								{
									"lat": 21.291,
									"lng": -157.821
								},
								{
									"lat": -18.142,
									"lng": 178.431
								},
								{
									"lat": -27.467,
									"lng": 153.027
								}
							],
							"geodesic": false,
							"strokeColor": "#FF0000",
							"strokeOpacity": 0.8,
							"strokeWeight": 2,
							"visible": true,
							"zIndex": 1
						}
					},
					{
						"id": "polygon.demo",
						"name": "Demo polygon",
						"type": "Polygon",
						"polylineOption": {
							"path": [{
									"lat": 37.772,
									"lng": -122.214
								},
								{
									"lat": 21.291,
									"lng": -157.821
								},
								{
									"lat": -18.142,
									"lng": 178.431
								},
								{
									"lat": -27.467,
									"lng": 153.027
								}
							],
							"geodesic": false,
							"strokeColor": "#FF0000",
							"strokeOpacity": 0.8,
							"strokeWeight": 2,
							"fillColor": "#FF0000",
							"fillOpacity": 0.35
						}
					},
					{
						"id": "rectangle.demo",
						"name": "Demo rectangle",
						"type": "Rectangle",
						"polylineOption": {
							"strokeColor": "#FF0000",
							"strokeOpacity": 0.8,
							"strokeWeight": 2,
							"fillColor": "#FF0000",
							"fillOpacity": 0.35,
							"bounds": {
								"north": 33.685,
								"south": 33.671,
								"east": -116.234,
								"west": -116.251
							}
						}
					},
					{
						"id": "circle.demo",
						"name": "Demo circle",
						"type": "Circle",
						"polylineOption": {
							"strokeColor": "#FF0000",
							"strokeOpacity": 0.8,
							"strokeWeight": 2,
							"fillColor": "#FF0000",
							"fillOpacity": 0.35,
							"center": {
								"lat": 49.25,
								"lng": -123.1
							},
							"radius": 100
						}
					}
				]
			}
		],
		"hoverContent": {
			"title": "Demo",
			"headContent": {
				"dataURL": {
					"method": "GET",
					"url": "https://api.openweathermap.org/data/2.5/weather?lat=14.076648&lon=100.601465&units=metric&appid=f47eeabecaa43594079886ab0fcd1508"
				},
				"template": "{{main.temp}}/{{main.humidity}}%"
			},
			"bodyContent": {
				"embeddedURL": {
					"method": "GET",
					"url": "https://opendata.mes.meca.in.th/s/opendata/app/dashboards#/view/eba5ad60-c765-11eb-9bf9-036b25d96c69?embed=true&_g=(filters:!(),refreshInterval:(pause:!t,value:0),time:(from:now-1y,to:now))&_a=(description:'',filters:!(),fullScreenMode:!f,options:(hidePanelTitles:!f,useMargins:!t),query:(language:kuery,query:''),timeRestore:!t,title:%E0%B8%81%E0%B8%B2%E0%B8%A3%E0%B9%83%E0%B8%8A%E0%B9%89%E0%B8%A7%E0%B8%B1%E0%B8%AA%E0%B8%94%E0%B8%B8%E0%B8%AA%E0%B8%B4%E0%B9%89%E0%B9%80%E0%B8%9B%E0%B8%A5%E0%B8%B7%E0%B8%AD%E0%B8%87,viewMode:view)&hide-filter-bar=true"
				}
			}
		}
	}],
	"customPallets": [{
		"name": "Weather",
		"iconURL": {
			"method": "GET",
			"url": "https://bulma.io/images/placeholders/32x32.png"
		},
		"dataURL": {
			"method": "GET",
			"url": "https://api.openweathermap.org/data/2.5/weather?lat=14.076648&lon=100.601465&units=metric&appid=f47eeabecaa43594079886ab0fcd1508"
		},
		"template": "{{main.temp}}/{{main.humidity}}%"
	}],
	"mapOption": {
		"center": {
			"lat": -34.397,
			"lng": 150.644
		},
		"zoom": 8
	},
	"logoURL": {
		"method": "GET",
		"url": "https://bulma.io/images/placeholders/32x32.png"
	}
}
